City_ID,City,Lat,Lng,Max Temp,Humidity,Cloudiness,Wind Speed,Country,Date
0,rikitea,-23.1203,-134.9692,25.76,69,100,1.34,PF,1676469998
1,mataura,-46.1927,168.8643,10.17,95,65,0.3,NZ,1676469999
2,geraldton,-28.7667,114.6,22.23,78,40,5.14,AU,1676470000
3,faanui,-16.4833,-151.75,27.22,76,19,4.93,PF,1676470001
4,beloha,-25.1667,45.05,33.16,34,21,4.01,MG,1676470002
5,kapaa,22.0752,-159.319,20.99,90,75,5.14,US,1676470003
6,punta arenas,-53.15,-70.9167,7.06,61,75,8.75,CL,1676469932
7,nago,26.5881,127.9761,14.24,69,96,7.85,JP,1676470004
8,albany,42.6001,-73.9662,8.1,51,100,0.89,US,1676470005
9,macau,22.2006,113.5461,16.85,67,0,6.17,MO,1676470006
10,barrow,71.2906,-156.7887,-26.99,76,100,7.2,US,1676470007
11,luderitz,-26.6481,15.1594,24.31,58,39,13.75,NA,1676470008
12,caibarien,22.5206,-79.4669,21.62,65,0,5.98,CU,1676469845
13,tuktoyaktuk,69.4541,-133.0374,-31.75,97,15,4.63,CA,1676470009
14,pisco,-13.7,-76.2167,23.34,88,75,4.63,PE,1676470010
15,tasiilaq,65.6145,-37.6368,-4.91,85,91,1.98,GL,1676470011
16,talagang,32.9297,72.4158,17.06,39,34,1.03,PK,1676470012
17,arraial do cabo,-22.9661,-42.0278,31.92,62,20,4.12,BR,1676470013
18,port elizabeth,-33.918,25.5701,25.16,69,75,4.63,ZA,1676469807
19,tumen,42.9661,129.8425,-12.08,77,3,1.11,CN,1676470016
20,atuona,-9.8,-139.0333,25.7,75,11,6.94,PF,1676470195
21,cape town,-33.9258,18.4232,26.73,68,29,6.26,ZA,1676470054
22,bassila,9.0081,1.6654,35.68,9,3,3.0,BJ,1676470240
23,amalapuram,16.5833,82.0167,22.85,76,0,2.47,IN,1676470241
24,tanout,14.9709,8.8879,24.01,13,0,8.97,NE,1676470243
25,guasdualito,7.2424,-70.7324,29.26,58,95,4.06,VE,1676470245
26,springbok,-29.6643,17.8865,28.03,26,0,8.16,ZA,1676470246
27,butaritari,3.0707,172.7902,26.83,80,68,5.01,KI,1676470247
28,camacha,33.0833,-16.3333,13.68,67,40,10.29,PT,1676470248
29,nizwa,22.9333,57.5333,28.26,9,15,3.45,OM,1676470035
30,puerto ayora,-0.7393,-90.3518,27.98,91,2,0.45,EC,1676470251
31,miguel alves,-4.1656,-42.8953,33.91,44,69,1.79,BR,1676470252
32,hilo,19.7297,-155.09,22.38,88,0,1.54,US,1676470255
33,valverde del camino,37.5751,-6.7543,15.02,46,100,5.46,ES,1676470256
34,berlevag,70.8578,29.0864,4.0,75,75,5.14,NO,1676470257
35,upernavik,72.7868,-56.1549,-30.52,78,93,2.85,GL,1676470259
36,xochihuehuetlan,17.9167,-98.4333,17.92,61,3,0.92,MX,1676470260
37,parvatipuram,18.7833,83.4333,22.36,59,0,1.39,IN,1676470263
38,dano,11.15,-3.0667,36.78,7,87,4.87,BF,1676470265
39,nikolskoye,59.7035,30.7861,2.11,93,99,2.06,RU,1676470267
40,bluff,-46.6,168.3333,13.31,88,49,3.24,NZ,1676470269
41,shenjiamen,29.9576,122.298,6.22,63,5,7.45,CN,1676470270
42,baykit,61.67,96.37,-21.11,100,92,0.66,RU,1676470272
43,olden,61.8364,6.8064,9.51,95,100,4.21,NO,1676470275
44,severo-kurilsk,50.6789,156.125,-1.99,73,100,10.93,RU,1676470276
45,castro,-24.7911,-50.0119,23.09,83,97,5.33,BR,1676470277
46,sale,34.0389,-6.8166,18.38,59,100,3.6,MA,1676470278
47,samandag,36.0842,35.9771,13.29,42,10,1.09,TR,1676470279
48,ushuaia,-54.8,-68.3,2.79,85,98,3.95,AR,1676470280
49,namatanai,-3.6667,152.4333,27.18,81,96,2.89,PG,1676470281
50,necochea,-38.5473,-58.7368,23.06,36,10,7.74,AR,1676470282
51,new norfolk,-42.7826,147.0587,17.06,62,82,1.05,AU,1676470283
52,dalton,34.7698,-84.9702,13.88,92,100,3.6,US,1676470024
53,avarua,-21.2078,-159.775,26.03,89,20,1.54,CK,1676470285
54,mahebourg,-20.4081,57.7,28.16,65,20,1.54,MU,1676470286
55,torbay,47.6666,-52.7314,-0.41,96,100,12.86,CA,1676470287
56,kununurra,-15.7667,128.7333,26.99,78,6,1.54,AU,1676470289
57,kendari,-3.945,122.4989,25.59,87,100,0.37,ID,1676470290
58,manggar,-2.8833,108.2667,26.07,82,100,4.34,ID,1676470291
59,tiksi,71.6872,128.8694,-25.52,97,100,3.51,RU,1676470292
60,ponta do sol,32.6667,-17.1,15.4,78,69,5.56,PT,1676470293
61,saint-pierre,-21.3393,55.4781,28.82,61,0,10.29,RE,1676470294
62,bredasdorp,-34.5322,20.0403,22.93,64,97,6.77,ZA,1676470022
63,safranbolu,41.2508,32.6942,1.28,85,89,2.51,TR,1676470296
64,sungairaya,0.7,108.9,25.79,82,99,4.7,ID,1676470297
65,hithadhoo,-0.6,73.0833,27.68,71,6,4.92,MV,1676470298
66,ilovlya,49.3033,43.9796,-6.48,89,100,4.24,RU,1676470299
67,iraquara,-12.2486,-41.6194,29.93,44,12,2.73,BR,1676470301
68,port alfred,-33.5906,26.891,22.32,97,100,1.34,ZA,1676470302
69,sharjah,25.3573,55.4033,27.99,47,0,5.14,AE,1676470088
70,gleisdorf,47.1061,15.7127,7.19,73,0,0.89,AT,1676470303
71,saskylakh,71.9167,114.0833,-17.32,95,100,2.22,RU,1676470304
72,thunder bay,48.4001,-89.3168,-7.05,73,100,3.09,CA,1676470213
73,krasnovka,48.8177,40.0923,-5.15,90,100,4.16,RU,1676470306
74,tobermory,45.2501,-81.6665,6.13,92,100,12.64,CA,1676470307
75,yellowknife,62.456,-114.3525,-38.7,100,41,1.49,CA,1676470308
76,salalah,17.0151,54.0924,25.05,69,0,2.57,OM,1676470309
77,tuatapere,-46.1333,167.6833,11.13,95,41,1.27,NZ,1676470310
78,georgetown,5.4112,100.3354,27.96,83,20,0.0,MY,1676470095
79,leningradskiy,69.3833,178.4167,-36.94,98,74,3.17,RU,1676470311
80,college,64.8569,-147.8028,-23.29,79,40,0.0,US,1676470312
81,klaksvik,62.2266,-6.589,6.51,72,100,5.0,FO,1676470313
82,san jeronimo,-11.9472,-75.2829,11.35,76,100,0.9,PE,1676470314
83,innisfail,-17.5333,146.0333,24.02,90,100,0.89,AU,1676470315
84,ola,59.5833,151.2833,-16.03,83,100,5.51,RU,1676470316
85,mar del plata,-38.0023,-57.5575,22.75,46,0,1.34,AR,1676470215
86,bumbuna,9.05,-11.7333,37.49,25,82,1.76,SL,1676470318
87,srednekolymsk,67.45,153.6833,-35.94,100,97,0.96,RU,1676470319
88,busselton,-33.65,115.3333,14.64,81,1,3.33,AU,1676470320
89,tarko-sale,64.9225,77.785,-17.64,96,92,4.56,RU,1676470321
90,rodrigues alves,-7.738,-72.6509,26.73,84,100,0.93,BR,1676470322
91,margate,51.3813,1.3862,12.05,69,100,3.13,GB,1676470322
92,nantucket,41.2835,-70.0995,7.08,87,100,4.63,US,1676470138
93,kruisfontein,-34.0033,24.7314,19.59,88,100,2.7,ZA,1676470324
94,poum,-20.2333,164.0167,25.88,72,100,5.61,NC,1676470325
95,dikson,73.5069,80.5464,-24.66,100,91,2.61,RU,1676470326
96,saint-joseph,-21.3667,55.6167,28.21,73,34,4.35,RE,1676470327
97,jamestown,42.097,-79.2353,14.77,47,100,8.23,US,1676470109
98,khatanga,71.9667,102.5,-15.23,96,100,4.1,RU,1676470329
99,nhulunbuy,-12.2333,136.7667,26.34,89,100,2.06,AU,1676470330
100,lebu,-37.6167,-73.65,17.06,77,19,8.88,CL,1676470331
101,lata,40.1629,-8.3327,21.15,42,43,2.79,PT,1676470332
102,aitape,-3.1374,142.3475,25.28,92,100,2.65,PG,1676470333
103,cidreira,-30.1811,-50.2056,25.47,79,90,3.78,BR,1676470334
104,vaini,-21.2,-175.2,26.45,84,99,3.7,TO,1676470335
105,portland,45.5234,-122.6762,0.14,94,100,0.45,US,1676469976
106,samfya,-11.3649,29.5565,26.4,62,70,2.97,ZM,1676470337
107,qaanaaq,77.484,-69.3632,-30.81,71,79,3.18,GL,1676470338
108,kalmunai,7.4167,81.8167,23.81,73,3,4.24,LK,1676470339
109,yumen,40.2833,97.2,0.16,40,100,3.14,CN,1676470341
110,dzidzantun,21.25,-89.05,23.45,73,0,3.27,MX,1676470342
111,itacoatiara,-3.1431,-58.4442,27.64,75,100,1.97,BR,1676470343
112,ostrovnoy,68.0531,39.5131,-1.89,93,98,11.35,RU,1676470345
113,lydenburg,-25.0978,30.4597,25.78,49,71,1.5,ZA,1676470346
114,ahipara,-35.1667,173.1667,17.44,88,100,3.34,NZ,1676470347
115,iqaluit,63.7506,-68.5145,-20.17,70,100,4.02,CA,1676470348
116,camacupa,-12.0167,17.4833,26.72,51,58,2.0,AO,1676470349
117,kavieng,-2.5744,150.7967,27.7,78,100,3.5,PG,1676470350
118,hobart,-42.8794,147.3294,17.25,83,98,0.0,AU,1676470138
119,ixtapa,20.7,-105.2,18.46,94,20,1.03,MX,1676470353
120,rio grande,-32.035,-52.0986,25.06,70,99,6.14,BR,1676470187
121,oranjemund,-28.55,16.4333,20.94,76,1,10.26,NA,1676470355
122,longyearbyen,78.2186,15.6401,-3.09,86,75,6.69,SJ,1676470356
123,kitob,39.0843,66.8332,9.32,83,100,1.25,UZ,1676470357
124,rantepao,-2.9701,119.8978,19.64,95,100,1.6,ID,1676470358
125,pacific grove,36.6177,-121.9166,7.1,68,0,2.57,US,1676470359
126,hasaki,35.7333,140.8333,1.23,54,24,10.19,JP,1676470360
127,oktyabrskiy,54.4815,53.471,-7.78,95,100,4.02,RU,1676470361
128,aklavik,68.2191,-135.0107,-32.6,99,16,3.6,CA,1676470362
129,chadiza,-14.0678,32.4392,23.09,87,100,1.19,ZM,1676470363
130,sarankhola,22.3082,89.7897,18.66,66,0,2.24,BD,1676470364
131,ribeira grande,38.5167,-28.7,16.22,67,75,6.69,PT,1676470365
132,hailun,47.45,126.9333,-19.23,95,100,3.32,CN,1676470367
133,acajutla,13.5928,-89.8275,26.73,58,2,1.32,SV,1676470368
134,asau,46.4333,26.4,5.51,67,11,0.48,RO,1676470369
135,tilichiki,60.4667,166.1,-23.2,84,100,5.37,RU,1676470370
136,inverness,57.4791,-4.224,9.95,70,20,9.26,GB,1676470371
137,harper,4.375,-7.7169,29.39,69,25,2.3,LR,1676470372
138,bonthe,7.5264,-12.505,30.26,63,72,5.37,SL,1676470372
139,antofagasta,-23.65,-70.4,22.6,65,9,2.3,CL,1676470367
140,nanortalik,60.1432,-45.2371,-9.85,65,0,6.29,GL,1676470374
141,ndola,-12.9587,28.6366,23.0,86,92,2.97,ZM,1676470375
142,codrington,-38.2667,141.9667,18.42,49,100,3.39,AU,1676470375
143,olafsvik,64.8945,-23.7142,2.9,60,90,13.01,IS,1676470376
144,roald,62.5833,6.1333,11.51,66,75,5.14,NO,1676470378
145,coquimbo,-29.9533,-71.3436,18.85,77,75,6.17,CL,1676470367
146,yulara,-25.2406,130.9889,32.27,24,98,1.98,AU,1676470379
147,antalaha,-14.9003,50.2788,26.4,84,13,4.5,MG,1676470380
148,chuy,-33.6971,-53.4616,24.62,49,0,4.65,UY,1676470381
149,san cristobal,7.7669,-72.225,20.1,58,39,1.69,VE,1676470382
150,fortuna,40.5982,-124.1573,-1.49,96,0,4.12,US,1676470383
151,sibolga,1.7427,98.7792,25.25,87,98,1.46,ID,1676470385
152,klamath falls,42.2249,-121.7817,-7.29,84,0,1.54,US,1676469945
153,port blair,11.6667,92.75,24.91,71,0,3.94,IN,1676470386
154,bengkulu,-3.8004,102.2655,25.38,85,95,1.24,ID,1676470387
155,plopii slavitesti,43.9667,24.6833,8.35,57,6,3.32,RO,1676470388
156,high rock,26.6208,-78.2833,23.01,65,0,8.18,BS,1676470390
157,alofi,-19.0595,-169.9187,24.65,87,100,4.22,NU,1676470391
158,thompson,55.7435,-97.8558,-27.82,96,100,1.97,CA,1676470392
159,fare,-16.7,-151.0167,27.31,75,8,4.6,PF,1676470393
160,ust-shonosha,61.1531,41.343,-13.28,99,85,1.32,RU,1676470394
161,poya,-21.35,165.15,23.01,85,86,2.44,NC,1676470396
162,bulawayo,-20.15,28.5833,24.04,68,100,3.3,ZW,1676470397
163,makokou,0.5738,12.8642,31.44,42,100,2.55,GA,1676470397
164,chokurdakh,70.6333,147.9167,-44.56,100,75,0.94,RU,1676470398
165,praia da vitoria,38.7333,-27.0667,15.98,81,89,4.11,PT,1676470399
166,monrovia,6.3005,-10.7969,30.87,67,89,3.81,LR,1676470380
167,kahului,20.8947,-156.47,19.91,89,40,2.57,US,1676470195
168,hermanus,-34.4187,19.2345,19.89,76,99,6.25,ZA,1676470402
169,luganville,-15.5333,167.1667,25.28,93,100,2.54,VU,1676470403
170,lipin bor,60.2622,37.9763,-10.83,97,30,1.74,RU,1676470404
171,bolu,40.6667,31.5833,-1.52,90,96,4.14,TR,1676470405
172,kysyl-syr,63.8986,122.7617,-33.96,100,95,1.14,RU,1676470406
173,pevek,69.7008,170.3133,-41.05,99,56,1.53,RU,1676470407
174,tuscaloosa,33.2098,-87.5692,16.88,92,100,3.6,US,1676470385
175,soe,-9.8607,124.284,19.24,93,99,1.13,ID,1676470410
176,viedma,-40.8135,-62.9967,21.4,29,89,5.75,AR,1676470412
177,puerto ayacucho,5.6639,-67.6236,26.23,79,100,1.07,VE,1676470413
178,udachnyy,66.4167,112.4,-24.17,100,98,1.13,RU,1676470414
179,sovetskaya gavan,48.9723,140.2878,-18.26,77,1,3.09,RU,1676470344
180,grindavik,63.8424,-22.4338,2.97,64,75,6.69,IS,1676470416
181,hamilton,39.1834,-84.5333,16.03,73,40,8.75,US,1676469870
182,waipawa,-41.4122,175.5153,14.28,95,100,5.79,NZ,1676470417
183,olinda,-8.0089,-34.8553,28.85,70,40,3.6,BR,1676470418
184,kalugumalai,9.15,77.7167,26.6,39,4,3.22,IN,1676470420
185,beringovskiy,63.05,179.3167,-32.05,96,35,2.87,RU,1676470344
186,aksay,47.26,39.87,-1.53,95,98,3.13,RU,1676470422
187,san quintin,30.4833,-115.95,11.21,64,38,6.84,MX,1676470423
188,ierapetra,35.01,25.7353,12.35,55,5,11.13,GR,1676470424
189,narsaq,60.9167,-46.05,-19.88,66,2,2.18,GL,1676470424
190,saldanha,-33.0117,17.9442,19.91,77,0,12.68,ZA,1676470426
191,yamada,39.4667,141.95,-4.83,80,43,3.06,JP,1676470427
192,dasoguz,41.8363,59.9666,4.08,30,100,6.46,TM,1676470428
193,omaha,41.2586,-95.9378,-2.03,79,100,11.32,US,1676470331
194,havre,49.5833,0.3333,15.19,41,0,4.12,FR,1676470431
195,airai,-8.9266,125.4092,15.93,93,90,0.34,TL,1676470433
196,sibu,2.3,111.8167,22.47,97,93,0.69,MY,1676470434
197,williston,48.147,-103.618,-13.99,97,46,1.65,US,1676470409
198,bathsheba,13.2167,-59.5167,28.34,65,20,9.77,BB,1676470436
199,azangaro,-14.9167,-70.2167,11.71,58,100,0.65,PE,1676470438
200,kailua,21.4022,-157.7394,21.19,91,46,1.79,US,1676470439
201,uglegorsk,49.0833,142.0333,-23.01,97,10,1.78,RU,1676470440
202,okitipupa,6.5047,4.7839,38.38,15,13,1.64,NG,1676470440
203,tongchuan,35.0806,109.0897,1.64,83,77,0.74,CN,1676470442
204,morant bay,17.8815,-76.4093,26.51,74,36,5.6,JM,1676470443
205,cayenne,4.9333,-52.3333,29.02,74,75,7.72,GF,1676470444
206,lukovetskiy,64.2956,41.9211,-13.13,99,92,1.24,RU,1676470445
207,wagar,16.1525,36.2032,30.14,24,60,7.83,SD,1676470446
208,sabha,27.0377,14.4283,16.28,30,10,5.41,LY,1676470447
209,tautira,-17.7333,-149.15,26.86,76,19,2.97,PF,1676470448
210,saverne,48.8333,7.25,11.17,50,7,2.74,FR,1676470449
211,labuhan,-6.8844,112.2051,24.64,92,100,4.18,ID,1676470450
212,tunceli,39.1083,39.5471,-5.13,91,77,0.88,TR,1676470451
213,mwingi,-0.9344,38.0601,31.57,28,3,5.1,KE,1676470452
214,isangel,-19.55,169.2667,24.15,73,40,3.35,VU,1676470453
215,vila velha,-20.3297,-40.2925,31.97,61,0,5.14,BR,1676470454
216,notse,6.95,1.1667,37.54,15,15,3.06,TG,1676470456
217,kaeo,-35.1,173.7833,16.85,94,100,2.03,NZ,1676470172
218,meulaboh,4.1363,96.1285,26.29,81,82,1.6,ID,1676470458
219,mayo,38.8876,-76.5119,11.67,75,100,5.66,US,1676470459
220,gao,16.6362,1.637,28.39,12,100,9.05,ML,1676470460
221,trairi,-3.2778,-39.2689,28.52,72,100,4.71,BR,1676470286
222,shingu,33.7333,135.9833,0.22,72,2,3.47,JP,1676470461
223,nador,35.174,-2.9287,20.04,63,20,4.12,MA,1676470464
224,qasigiannguit,68.8193,-51.1922,-21.86,71,100,1.38,GL,1676470465
225,orlovskiy,46.8714,42.0592,-4.11,90,97,4.76,RU,1676470466
226,cabo san lucas,22.8909,-109.9124,15.84,70,0,4.63,MX,1676470333
227,quatre cocos,-20.2078,57.7625,28.06,62,0,3.78,MU,1676470468
228,sumbe,-11.2061,13.8437,28.08,67,40,5.08,AO,1676470469
229,ankang,32.68,109.0172,7.06,70,58,1.19,CN,1676470470
230,porto velho,-8.7619,-63.9039,29.03,70,20,2.57,BR,1676470471
231,moindou,-21.6924,165.677,23.79,79,99,2.82,NC,1676470473
232,chanute,37.6792,-95.4572,0.81,93,0,0.0,US,1676470268
233,tura,25.5198,90.2201,16.56,37,0,1.38,IN,1676470475
234,morondava,-20.2833,44.2833,28.91,68,11,4.56,MG,1676470476
235,saint-philippe,-21.3585,55.7679,27.77,75,39,4.08,RE,1676470476
236,santiago del estero,-27.7951,-64.2615,28.92,61,62,1.97,AR,1676470477
237,east london,-33.0153,27.9116,25.52,94,75,3.6,ZA,1676470479
238,aktash,50.3,87.7333,-22.41,84,99,1.86,RU,1676470480
239,leku,6.8667,38.45,27.77,17,100,2.24,ET,1676470481
240,xai-xai,-25.0519,33.6442,29.51,68,30,5.14,MZ,1676470482
241,touros,-5.1989,-35.4608,29.97,64,75,6.38,BR,1676470485
242,constitucion,-35.3333,-72.4167,20.14,58,1,6.13,CL,1676470486
243,malinovskiy,61.1953,62.8397,-14.95,100,76,1.44,RU,1676470487
244,mercedes,-34.6515,-59.4307,27.19,26,0,1.24,AR,1676470488
245,wangou,42.0623,126.9127,-15.15,87,100,0.77,CN,1676470489
246,kjollefjord,70.9457,27.3465,5.03,81,75,5.66,NO,1676470490
247,luanda,-8.8368,13.2343,29.0,68,75,5.14,AO,1676470422
248,coahuayana,18.7333,-103.6833,19.28,38,3,1.83,MX,1676470492
249,nizhniy kuranakh,58.8353,125.4869,-20.54,99,100,1.5,RU,1676470493
250,umm lajj,25.0213,37.2685,19.56,45,32,6.92,SA,1676470493
251,yurla,59.3259,54.3223,-12.93,98,31,1.4,RU,1676470494
252,camana,-16.6228,-72.7111,24.83,82,96,1.81,PE,1676470495
253,husavik,66.0449,-17.3389,-0.76,70,100,6.48,IS,1676470496
254,loa janan,-0.583,117.095,22.99,98,97,0.84,ID,1676470497
255,peace river,56.2501,-117.286,-11.83,72,100,3.6,CA,1676470498
256,slonim,53.0867,25.3219,3.96,57,20,1.74,BY,1676470499
257,channel-port aux basques,47.5702,-59.1367,-3.25,68,5,5.39,CA,1676470500
258,wangkui,46.8333,126.5,-19.22,92,98,3.44,CN,1676470502
259,sampit,-2.5333,112.95,23.44,96,96,0.9,ID,1676470503
260,goderich,43.7501,-81.7165,11.18,66,100,11.83,CA,1676470504
261,bethel,41.3712,-73.414,8.83,70,0,2.57,US,1676470506
262,carnarvon,-24.8667,113.6333,23.79,65,0,8.67,AU,1676470507
263,natal,-5.795,-35.2094,31.36,70,40,8.23,BR,1676470120
264,hofn,64.2539,-15.2082,1.01,86,75,1.54,IS,1676470509
265,tvoroyri,61.5556,-6.8111,5.67,78,100,7.0,FO,1676470510
266,ancud,-41.8697,-73.8203,14.59,73,41,2.88,CL,1676470511
267,tonantins,-2.8731,-67.8022,25.67,92,100,1.38,BR,1676470512
268,turkistan,43.0,68.0,2.62,59,100,4.07,KZ,1676470328
269,clarksburg,39.2807,-80.3445,17.39,51,41,6.51,US,1676470260
270,linfen,36.0889,111.5189,3.76,67,46,0.28,CN,1676470515
271,cortez,37.3489,-108.5859,-8.5,74,40,2.06,US,1676470516
272,vao,-22.6667,167.4833,23.75,60,88,3.48,NC,1676470517
273,kayseri,38.737,35.4968,0.01,69,75,5.14,TR,1676470519
274,hoquiam,46.9809,-123.8893,1.67,94,0,3.09,US,1676470269
275,ystad,55.4297,13.8204,4.41,84,98,4.04,SE,1676470521
276,victoria,22.2855,114.1577,17.36,72,3,2.68,HK,1676470343
277,santa cruz,-17.8,-63.1667,28.7,65,75,7.72,BO,1676470512
278,igarka,67.4667,86.5833,-13.0,95,100,4.7,RU,1676470524
279,cherskiy,68.75,161.3,-37.61,97,100,1.79,RU,1676470525
280,castlecomer,52.8061,-7.2106,9.7,71,77,5.52,IE,1676470526
281,hvide sande,56.0045,8.1294,5.72,91,100,5.47,DK,1676470527
282,davidson,36.1501,-86.7833,17.73,82,75,6.71,US,1676470529
283,adil-yangiyurt,43.5633,46.5846,0.44,98,100,4.19,RU,1676470530
284,bambous virieux,-20.3428,57.7575,28.14,65,20,1.54,MU,1676470531
285,freeport,40.6576,-73.5832,10.55,75,20,8.75,US,1676470293
286,lagos,6.5833,3.75,34.54,39,64,3.43,NG,1676470200
287,taoudenni,22.6783,-3.9836,28.63,14,100,4.54,ML,1676470533
288,honningsvag,70.9821,25.9704,4.86,75,100,5.14,NO,1676470534
289,esperance,-33.8667,121.9,16.76,75,57,4.79,AU,1676470535
290,tubmanburg,6.8708,-10.8172,37.26,35,89,0.87,LR,1676470536
291,yar-sale,66.8333,70.8333,-19.51,98,100,1.82,RU,1676470537
292,camalu,30.85,-116.0667,9.94,68,36,4.83,MX,1676470538
293,jumla,29.2747,82.1838,7.41,65,0,1.38,NP,1676470539
294,villazon,-22.0866,-65.5942,9.76,78,100,2.1,BO,1676470540
295,sungaipenuh,-2.0833,101.3833,18.92,91,100,0.7,ID,1676470541
296,salinas,36.6777,-121.6555,7.32,60,0,3.09,US,1676470542
297,cabra,37.4725,-4.4421,15.73,45,100,1.21,ES,1676470543
298,shimoda,34.6667,138.95,2.28,70,98,4.06,JP,1676470544
299,gamba,-2.65,10.0,24.83,85,98,3.73,GA,1676470545
300,podosinovets,60.2776,47.0659,-8.2,91,100,2.24,RU,1676470546
301,jieshi,22.8134,115.8257,14.48,78,11,9.36,CN,1676470547
302,siyabuswa,-25.1132,29.0445,30.98,38,27,5.27,ZA,1676470548
303,piacabucu,-10.4056,-36.4344,30.26,62,100,5.14,BR,1676470549
304,sept-iles,50.2001,-66.3821,-6.64,89,100,3.09,CA,1676470551
305,sao joao da barra,-21.6403,-41.0511,31.05,78,51,4.05,BR,1676470551
306,sinnamary,5.3833,-52.95,26.2,89,85,4.94,GF,1676470552
307,buang,13.3122,123.6419,22.39,90,100,4.91,PH,1676470553
308,wattegama,6.7989,81.4808,21.76,78,5,3.51,LK,1676470554
309,popondetta,-8.7537,148.2534,23.59,95,93,1.22,PG,1676470554
310,pangkalanbuun,-2.6833,111.6167,24.3,89,99,1.7,ID,1676470555
311,bud,39.447,-86.1758,14.63,70,3,8.96,US,1676470556
312,ajdabiya,30.7554,20.2263,16.04,50,33,6.87,LY,1676470557
313,huilong,31.8111,121.655,2.74,71,4,3.3,CN,1676470558
314,kuminskiy,58.6667,66.5667,-12.97,97,100,2.0,RU,1676470558
315,bambanglipuro,-7.95,110.2833,24.7,89,100,2.99,ID,1676470559
316,yeppoon,-23.1333,150.7333,25.88,78,57,6.53,AU,1676470560
317,port lincoln,-34.7333,135.8667,23.39,55,95,5.15,AU,1676470561
318,saint george,37.1041,-113.5841,-0.42,54,75,5.36,US,1676470267
319,burnie,-41.0667,145.9167,14.41,96,53,3.08,AU,1676470563
320,zhanakorgan,43.9098,67.2495,0.2,61,100,4.82,KZ,1676470564
321,filingue,14.3521,3.3168,30.66,10,3,8.36,NE,1676470565
322,port-gentil,-0.7193,8.7815,26.24,81,100,3.97,GA,1676470567
323,minnedosa,50.2453,-99.8436,-24.69,92,12,4.32,CA,1676470569
324,okha,53.5739,142.9478,-26.01,97,23,5.47,RU,1676470571
325,niagara falls,43.1001,-79.0663,16.25,51,100,10.29,CA,1676470573
326,kodiak,57.79,-152.4072,-2.27,69,100,6.69,US,1676470574
327,sur,22.5667,59.5289,26.76,35,39,6.17,OM,1676470575
328,arman,59.7,150.1667,-16.1,89,100,6.11,RU,1676470576
329,dondo,-19.6094,34.7431,32.73,73,20,4.12,MZ,1676470577
330,villacarrillo,38.1156,-3.0848,13.97,41,100,0.96,ES,1676470578
331,odienne,9.51,-7.5692,36.79,9,23,3.29,CI,1676470579
332,saint anthony,45.0205,-93.218,0.96,81,100,10.8,US,1676470580
333,haines junction,60.7522,-137.5108,-11.03,92,100,0.0,CA,1676470581
334,port augusta,-32.5,137.7667,26.68,16,0,2.37,AU,1676470582
335,belen,36.4891,36.2233,9.08,24,40,7.2,TR,1676470583
336,alice springs,-23.7,133.8833,31.23,40,3,4.12,AU,1676470584
337,hwange,-18.3693,26.5019,25.79,84,100,1.63,ZW,1676470585
338,mabaruma,8.2,-59.7833,25.63,93,86,2.68,GY,1676470586
339,jojoima,7.8792,-10.7878,36.6,33,64,0.78,SL,1676470587
340,sangar,63.9242,127.4739,-40.49,100,47,0.44,RU,1676470588
341,xinqing,48.2333,129.5,-19.94,98,57,1.94,CN,1676470589
342,vila franca do campo,37.7167,-25.4333,15.23,60,43,1.79,PT,1676470590
343,berdigestyakh,62.0989,126.6992,-36.84,100,97,0.47,RU,1676470593
344,lengshuitan,26.4111,111.5956,7.56,74,11,2.44,CN,1676470595
345,xiongzhou,25.1167,114.3,7.01,82,0,1.55,CN,1676470597
346,kumluca,36.3703,30.2869,12.59,47,39,1.51,TR,1676470599
347,buraydah,26.326,43.975,16.25,26,99,2.14,SA,1676470532
348,orbetello,42.4408,11.2196,17.01,53,0,1.75,IT,1676470601
349,rawah,34.4816,41.9093,11.45,42,98,0.85,IQ,1676470602
350,parabel,58.6978,81.4825,-18.96,100,90,1.74,RU,1676470603
351,norman wells,65.282,-126.8329,-37.98,67,0,0.0,CA,1676470604
352,ojinaga,29.5667,-104.4167,14.53,23,0,4.12,MX,1676470605
353,elko,41.0002,-115.5012,-9.99,100,64,1.03,US,1676470605
354,waiuku,-37.25,174.75,18.51,93,98,0.67,NZ,1676470606
355,barcelos,41.5388,-8.6151,20.08,46,9,0.67,PT,1676470607
356,sao filipe,14.8961,-24.4956,22.0,68,0,6.11,CV,1676470608
357,the valley,18.217,-63.0578,27.68,73,20,6.17,AI,1676470474
358,yelizovo,53.1873,158.3805,-1.92,54,75,11.0,RU,1676470611
359,marsh harbour,26.5412,-77.0636,22.57,63,0,7.47,BS,1676470611
360,carutapera,-1.195,-46.02,27.85,81,89,2.56,BR,1676470613
361,carleton place,45.1334,-76.1494,3.14,82,100,1.79,CA,1676470459
362,huarmey,-10.0681,-78.1522,23.67,83,100,1.69,PE,1676470615
363,clearwater,27.9659,-82.8001,20.61,79,0,4.63,US,1676470600
364,socol,44.8608,21.3703,9.05,67,5,0.45,RO,1676470616
365,staroutkinsk,57.2302,59.3348,-11.58,93,95,4.02,RU,1676470617
366,majene,-3.5403,118.9707,26.42,79,100,4.59,ID,1676470618
367,mangaratiba,-22.9597,-44.0406,31.48,60,100,1.48,BR,1676470613
368,reconquista,-29.15,-59.65,31.75,44,3,3.38,AR,1676470620
369,guerrero negro,27.9769,-114.0611,13.97,59,97,6.74,MX,1676470621
370,bandarbeyla,9.4942,50.8122,25.67,65,30,6.25,SO,1676470623
371,yeniseysk,58.4497,92.1703,-24.3,100,99,0.04,RU,1676470624
372,martapura,-3.4167,114.85,24.05,94,40,2.57,ID,1676470625
373,pallasovka,50.05,46.8833,-6.61,94,97,3.33,RU,1676470626
374,cravo norte,6.3017,-70.2041,30.98,51,60,5.61,CO,1676470627
375,te anau,-45.4167,167.7167,9.76,97,57,1.5,NZ,1676470630
376,mareeba,-17.0,145.4333,21.91,94,100,1.3,AU,1676470632
377,fallon,39.4735,-118.7774,-4.07,58,40,3.6,US,1676470634
378,ketchikan,55.3422,-131.6461,1.99,93,100,9.26,US,1676470634
379,kitakata,37.65,139.8667,-4.42,92,72,2.38,JP,1676470636
380,nkoteng,4.5167,12.0333,37.5,11,61,1.38,CM,1676470637
381,sistranda,63.7256,8.834,2.98,65,100,5.41,NO,1676470638
382,kampot,10.6167,104.1833,24.03,68,97,1.22,KH,1676470640
383,menongue,-14.6585,17.691,28.56,48,63,1.1,AO,1676470641
384,ampanihy,-24.7,44.75,24.91,69,93,6.65,MG,1676470639
385,roebourne,-20.7833,117.1333,32.88,38,2,7.42,AU,1676470645
386,dicabisagan,17.0818,122.4157,22.95,88,100,6.74,PH,1676470646
387,tocache,-8.1842,-76.5125,23.26,91,100,0.49,PE,1676470647
388,pangnirtung,66.1451,-65.7125,-23.0,64,75,5.14,CA,1676470648
389,colares,38.7992,-9.4469,20.74,54,20,9.39,PT,1676470649
390,canutama,-6.5339,-64.3831,23.42,99,100,1.21,BR,1676470651
391,lerwick,60.1545,-1.1494,7.04,90,100,11.9,GB,1676470652
392,inuvik,68.3499,-133.7218,-28.52,76,0,3.6,CA,1676470557
393,pimenta bueno,-11.6725,-61.1936,27.5,84,100,0.06,BR,1676470654
394,vavuniya,8.7514,80.4971,20.46,81,0,1.79,LK,1676470654
395,fairview,40.8126,-73.999,11.05,66,20,8.49,US,1676470559
396,brasilia de minas,-16.2064,-44.4333,29.74,40,32,2.14,BR,1676470656
397,verkhnevilyuysk,63.4453,120.3167,-23.97,99,99,0.97,RU,1676470657
398,san rafael,-34.6177,-68.3301,26.36,24,53,2.16,AR,1676470359
399,katangli,51.7102,143.2326,-25.14,95,12,4.29,RU,1676470659
400,kalpi,26.1167,79.7333,19.48,35,0,2.69,IN,1676470659
401,shubarkuduk,49.1447,56.4872,-2.61,96,100,3.86,KZ,1676470660
402,christchurch,-43.5333,172.6333,14.95,95,75,6.17,NZ,1676470661
403,palu,-0.8917,119.8707,24.04,96,100,0.61,ID,1676470662
404,broken hill,-31.95,141.4333,27.45,27,0,3.58,AU,1676470663
405,ust-kut,56.7938,105.7672,-16.91,99,100,1.13,RU,1676470384
406,san patricio,28.017,-97.5169,20.92,98,100,3.33,US,1676470665
407,hualmay,-11.0964,-77.6139,23.83,82,98,2.25,PE,1676470666
408,verkhoyansk,67.5447,133.385,-45.92,100,55,0.38,RU,1676470667
409,talavera de la reina,39.9635,-4.8308,13.26,53,100,6.49,ES,1676470668
410,tayu,-6.5397,111.0518,25.17,86,100,3.86,ID,1676470668
411,grenada,37.1882,-3.6067,16.62,46,20,1.03,ES,1676470381
412,marzuq,14.4,46.4667,25.24,24,6,6.76,YE,1676470670
413,sitka,57.0531,-135.33,2.94,81,100,10.8,US,1676470490
414,yuci,37.6803,112.7319,-2.14,86,7,1.0,CN,1676470671
415,umm kaddadah,13.6017,26.6876,24.78,13,3,9.2,SD,1676470673
416,puerto baquerizo moreno,-0.9,-89.6,26.55,89,40,1.03,EC,1676470674
417,jinchang,38.4953,102.1739,-2.56,70,69,2.71,CN,1676470675
418,laguna,38.421,-121.4238,6.05,58,0,6.69,US,1676470652
419,skjervoy,70.0311,20.9714,3.0,80,55,3.93,NO,1676470676
420,santa maria,-29.6842,-53.8069,27.71,56,89,1.91,BR,1676470677
421,moirang,24.5,93.7667,15.62,49,0,1.8,IN,1676470678
422,carbonia,39.1672,8.5222,17.53,61,0,2.51,IT,1676470550
423,cairns,-16.9167,145.7667,24.48,94,75,7.72,AU,1676470580
424,seymchan,62.8833,152.4333,-28.84,97,100,2.64,RU,1676470681
425,vanimo,-2.6741,141.3028,25.33,89,100,2.68,PG,1676470682
426,vuktyl,63.8567,57.3094,-16.58,100,59,0.4,RU,1676470683
427,ondangwa,-17.9167,15.95,35.8,13,2,3.67,NA,1676470684
428,benghazi,32.1167,20.0667,14.88,55,75,6.61,LY,1676470685
429,terrace bay,48.7834,-87.1,-6.82,91,100,9.71,CA,1676470687
430,belmonte,-15.8631,-38.8828,28.76,64,71,2.93,BR,1676470689
431,pringsewu,-5.3582,104.9744,23.93,92,100,1.11,ID,1676470691
432,north port,27.0442,-82.2359,21.69,92,0,3.79,US,1676470692
433,koumac,-20.5667,164.2833,24.22,79,98,3.7,NC,1676470693
434,maraba,-5.3686,-49.1178,28.1,89,100,2.06,BR,1676470695
435,elliot lake,46.3834,-82.6331,2.24,100,100,3.25,CA,1676470696
436,nouadhibou,20.931,-17.0347,24.99,44,0,9.77,MR,1676470697
437,makakilo city,21.3469,-158.0858,20.38,81,40,3.6,US,1676470698
438,walvis bay,-22.9575,14.5053,24.53,57,0,6.17,NA,1676470699
439,andros town,24.7,-77.7667,23.98,59,75,8.1,BS,1676470700
440,komsomolskiy,40.4272,71.7189,2.4,93,100,2.06,UZ,1676470701
441,logan,41.7355,-111.8344,-10.5,81,100,0.45,US,1676470702
442,kaitangata,-46.2817,169.8464,12.95,88,60,1.8,NZ,1676470703
443,peleduy,59.6289,112.7406,-13.45,97,100,1.95,RU,1676470704
444,gladstone,-23.85,151.25,24.96,73,42,2.57,AU,1676470705
445,lompoc,34.6391,-120.4579,2.55,83,0,1.54,US,1676470707
446,itoman,26.1247,127.6694,15.01,58,100,8.75,JP,1676470708
447,gevrai,19.2667,75.75,28.17,14,0,2.88,IN,1676470710
448,dunedin,-45.8742,170.5036,14.33,81,50,2.68,NZ,1676470711
449,hami,42.8,93.45,0.47,42,0,2.99,CN,1676470712
450,khorixas,-20.3667,14.9667,34.76,11,22,7.97,NA,1676470713
451,muta,46.6114,15.1661,12.1,69,0,0.59,SI,1676470715
452,thiruvananthapuram,8.4833,76.9167,28.99,58,20,0.0,IN,1676470426
453,zhangye,38.9342,100.4517,-2.08,51,12,3.12,CN,1676470716
454,tessalit,20.1986,1.0114,27.72,12,93,7.39,ML,1676470718
455,mocajuba,-2.5842,-49.5072,27.79,78,99,1.96,BR,1676470720
456,launceston,-41.45,147.1667,15.08,76,55,2.57,AU,1676470721
457,belaya gora,68.5333,146.4167,-36.46,97,100,0.52,RU,1676470722
458,bay roberts,47.5999,-53.2648,-0.42,89,100,6.71,CA,1676470723
459,coihaique,-45.5752,-72.0662,11.97,47,40,2.57,CL,1676470724
460,kabompo,-13.5927,24.2008,27.02,66,77,2.13,ZM,1676470724
461,waddan,29.1614,16.139,15.94,37,48,4.44,LY,1676470725
462,teya,60.3778,92.6267,-22.06,100,98,1.28,RU,1676470726
463,wenling,28.3669,121.36,5.72,70,0,5.11,CN,1676470727
464,karangasem,-8.45,115.6167,24.98,80,100,2.4,ID,1676470728
465,hovd,48.0056,91.6419,-16.03,89,86,0.43,MN,1676470729
466,suez,29.9737,32.5263,15.73,42,78,7.03,EG,1676470730
467,chapais,49.7834,-74.8492,-0.12,88,100,4.27,CA,1676470731
468,maketu,-37.7667,176.45,17.91,77,98,3.03,NZ,1676470732
469,samana,19.2056,-69.3369,23.98,78,37,4.68,DO,1676470733
470,stokmarknes,68.5646,14.9108,4.99,75,75,3.09,NO,1676470734
471,leh,34.1667,77.5833,-11.8,68,1,1.19,IN,1676470735
472,sioux lookout,50.1001,-91.917,-14.96,78,100,6.17,CA,1676470735
473,caconda,-13.7333,15.0667,22.96,58,100,4.43,AO,1676470736
474,mustasaari,63.1142,21.6822,0.69,100,100,4.63,FI,1676470737
475,boyolangu,-8.1181,111.8935,24.21,89,100,1.82,ID,1676470738
476,kaseda,31.4167,130.3167,6.88,62,0,2.95,JP,1676470739
477,kirakira,-10.4544,161.9205,26.86,84,100,1.7,SB,1676470740
478,aswan,24.0934,32.907,18.94,24,1,7.44,EG,1676470740
479,anchorage,61.2181,-149.9003,-3.51,90,40,2.57,US,1676470501
480,anloga,5.7947,0.8973,29.88,66,74,6.2,GH,1676470742
481,zlitan,32.4674,14.5687,14.87,64,98,5.01,LY,1676470743
482,upington,-28.4478,21.2561,37.21,16,40,2.57,ZA,1676470745
483,padang,-0.9492,100.3543,26.03,84,100,1.19,ID,1676470746
484,gat,31.61,34.7642,14.38,100,19,6.37,IL,1676470748
485,mitsamiouli,-11.3847,43.2844,26.92,76,6,1.08,KM,1676470749
486,okakarara,-20.5833,17.4333,32.87,18,89,7.26,NA,1676470750
487,waingapu,-9.6567,120.2641,25.74,85,100,3.29,ID,1676470751
488,sakaiminato,35.55,133.2333,1.99,55,75,5.14,JP,1676470752
489,liusha,27.2098,108.59,5.81,69,100,1.25,CN,1676470753
490,nanfeng,23.7434,111.7959,12.12,74,12,1.28,CN,1676470755
491,arlit,18.7369,7.3853,24.71,12,84,1.47,NE,1676470756
492,ninh binh,20.2539,105.975,16.78,75,100,2.46,VN,1676470758
493,coos bay,43.3665,-124.2179,0.52,99,0,3.09,US,1676470558
494,aykhal,66.0,111.5,-26.27,100,28,1.11,RU,1676470759
495,altamont,42.2068,-121.7372,-7.34,84,0,1.54,US,1676470761
496,altay,47.8667,88.1167,-12.3,80,16,3.22,CN,1676470762
497,lavrentiya,65.5833,-171.0,-30.22,92,71,2.34,RU,1676470764
498,dingle,10.9995,122.6711,23.35,91,100,4.17,PH,1676470765
499,puqi,29.7167,113.8833,6.36,75,1,2.11,CN,1676470766
500,cotabato,7.2236,124.2464,23.57,90,100,2.17,PH,1676470767
501,lazaro cardenas,17.9583,-102.2,20.94,65,0,2.14,MX,1676470510
502,xining,36.6167,101.7667,-7.13,81,13,0.51,CN,1676470768
503,pitkyaranta,61.5734,31.4792,-1.88,96,99,4.12,RU,1676470770
504,kilifi,-3.6305,39.8499,27.99,67,6,6.59,KE,1676470771
505,lodja,-3.4833,23.4333,26.57,72,98,0.99,CD,1676470772
506,dongying,37.4564,118.4856,-0.98,53,5,3.05,CN,1676470772
507,vardo,70.3705,31.1107,0.99,93,75,11.83,NO,1676470773
508,saint joseph,39.7686,-94.8466,2.36,80,100,7.72,US,1676470555
509,carupano,10.6678,-63.2585,26.01,79,93,4.44,VE,1676470776
510,amarkantak,22.6667,81.75,16.36,25,0,2.11,IN,1676470777
511,atar,20.5169,-13.0499,33.79,11,5,3.06,MR,1676470778
512,hervey bay,-25.2986,152.8535,24.53,72,24,7.2,AU,1676470779
513,nuuk,64.1835,-51.7216,-13.66,61,75,1.03,GL,1676470780
514,kachug,53.9606,105.8817,-17.29,98,100,0.7,RU,1676470782
515,churapcha,62.0025,132.4325,-42.44,100,64,0.2,RU,1676470783
516,dalupirip,16.3258,120.7256,21.41,88,73,2.94,PH,1676470784
517,mao,39.8885,4.2658,13.31,67,40,3.6,ES,1676470785
518,hsinchu,24.8036,120.9686,14.36,67,17,4.02,TW,1676470786
519,talas,38.6908,35.5538,-0.63,69,75,5.14,TR,1676470787
520,tabora,-5.0167,32.8,28.59,43,15,1.14,TZ,1676470691
521,fort nelson,58.8053,-122.7002,-17.23,78,75,1.03,CA,1676470789
522,ruteng,-8.6136,120.4721,17.46,94,100,0.59,ID,1676470790
523,morehead,37.2711,-87.1764,16.03,85,0,5.66,US,1676470574
524,mokhsogollokh,61.4681,128.9203,-39.97,100,88,0.52,RU,1676470792
525,miri,4.4148,114.0089,25.08,94,20,1.03,MY,1676470793
526,wanning,18.8003,110.3967,18.78,82,100,5.59,CN,1676470793
527,sisimiut,66.9395,-53.6735,-16.69,74,100,6.64,GL,1676470795
528,houma,29.5958,-90.7195,21.12,90,100,5.14,US,1676470487
529,atherton,53.5237,-2.4935,10.97,90,100,2.85,GB,1676470796
530,matara,5.9485,80.5353,25.41,74,70,2.86,LK,1676470797
531,kurchum,48.5722,83.6542,-14.26,97,86,1.49,KZ,1676470798
532,vagamo,61.8751,9.0967,1.49,85,46,1.01,NO,1676470799
533,raahe,64.6833,24.4833,-1.95,93,4,3.68,FI,1676470800
534,provideniya,64.3833,-173.3,-30.04,94,21,1.27,RU,1676470801
535,saryg-sep,51.5,95.6,-26.57,100,92,0.95,RU,1676470802
536,saint-gaudens,43.0833,0.6667,12.79,33,32,2.29,FR,1676470803
